time,froll,fpitch,fyaw,altitude*10,faltitude*10,altitude_target*10,yaw_target,roll_target,pitch_target
0,1.125,0,0.0,0.6293379225089464,0.12586758450178925,0.0,0.0,0,0
0.01,1.125,0,0.0,0.3842173832413385,0.1775375442496991,0.0,0.0,0,0
0.02,1.125,0,0.0,0.1251718592648239,0.1670644072527241,0.0,0.0,0,0
0.03,1.125,0,0.0,-0.10102297692078219,0.11344693041802284,0.0,0.0,0,0
0.04,1.125,0,0.0,-0.29693705552653454,0.03137013322911138,0.0,0.0,0,0
0.05,1.125,0,0.0,-0.5103449417557807,-0.07697288176786701,0.0,0.0,0,0
0.060000000000000005,1.0625,0,0.025,-0.7792919799719623,-0.21743670140868604,0.0,0.0,0,0
0.07,1.0625,0,-0.010000000000000002,-1.0541133903357467,-0.38477203919409814,0.0,0.0,0,0
0.08,1.0625,0,-0.031000000000000003,-1.275261715057224,-0.5628699743667233,0.0,0.0,0,0
0.09,1.125,0,-0.018600000000000002,-1.4214441537693294,-0.7345848102472445,0.0,0.0,0,0
0.09999999999999999,1.0625,0,-0.011160000000000002,-1.5480111993056331,-0.8972700880589223,0.0,0.0,0,0
0.10999999999999999,1.0625,0,-0.031696,-1.6442072720765044,-1.0466575248624386,0.0,0.0,0,0
0.11999999999999998,1.0625,0,-0.0190176,-1.7203538014786748,-1.181396780185686,0.0,0.0,0,0
0.12999999999999998,1.0625,0,-0.03641056,-1.8217672878127535,-1.3094708817110994,0.0,0.0,0,0
0.13999999999999999,1.0625,0,-0.046846336,-1.9372119817503786,-1.435019101718955,0.0,0.0,0,0
0.15,1.0625,0,-0.053107801600000004,-2.0226080170905156,-1.5525368847932672,0.0,0.0,0,0
0.16,1.0625,0,-0.03186468096,-2.0444660073456618,-1.6509227093037462,0.0,0.0,0,0
0.17,1.0625,0,-0.04411880857600001,-2.01666955146856,-1.7240720777367091,0.0,0.0,0,0
0.18000000000000002,1.0625,0,-0.026471285145600005,-1.9275132641033736,-1.7647603150100422,0.0,0.0,0,0
0.19000000000000003,1.0625,0,-0.01588277108736,-1.8137858898870376,-1.7745654299854414,0.0,0.0,0,0
0.20000000000000004,1.0625,0,-0.034529662652416,-1.7170130768328848,-1.76305495935493,0.0,0.0,0,0
0.21000000000000005,1.0625,0,-0.020717797591449597,-1.678658616877464,-1.7461756908594368,0.0,0.0,0,0
0.22000000000000006,1.0625,0,-0.012430678554869758,-1.66903668776146,-1.7307478902398412,0.0,0.0,0,0
0.23000000000000007,1.0625,0,-0.032458407132921856,-1.6342833915588282,-1.7114549905036385,0.0,0.0,0,0
0.24000000000000007,1.0625,0,-0.044475044279753115,-1.5857453641834949,-1.6863130652396097,0.0,0.0,0,0
0.25000000000000006,1.0625,0,-0.026685026567851867,-1.5510136736768807,-1.6592531869270637,0.0,0.0,0,0
0.26000000000000006,1.0625,0,-0.01601101594071112,-1.539100579423545,-1.6352226654263602,0.0,0.0,0,0
0.2700000000000001,1.0625,0,-0.009606609564426672,-1.5417098128180733,-1.616520094904703,0.0,0.0,0,0
0.2800000000000001,1.0625,0,-0.005763965738656003,-1.539395384670955,-1.6010951528579531,0.0,0.0,0,0
0.2900000000000001,1.0625,0,-0.0034583794431936018,-1.4838504845831273,-1.577646219202988,0.0,0.0,0,0
0.3000000000000001,1.125,0,-0.027075027665916164,-1.4203112111179594,-1.5461792175859823,0.0,0.0,0,0
0.3100000000000001,1.0625,0,-0.0162450165995497,-1.3869593923770096,-1.5143352525441878,0.0,0.0,0,0
0.3200000000000001,1.0625,0,-0.009747009959729819,-1.3414392362711753,-1.4797560492895854,0.0,0.0,0,0
0.3300000000000001,1.0625,0,-0.005848205975837891,-1.288735237890262,-1.4415518870097208,0.0,0.0,0,0
0.34000000000000014,1.0625,0,-0.0035089235855027346,-1.2447692761441822,-1.4021953648366132,0.0,0.0,0,0
0.35000000000000014,1.0625,0,-0.027105354151301643,-1.2205640838756113,-1.3658691086444128,0.0,0.0,0,0
0.36000000000000015,1.0625,0,-0.041263212490780986,-1.1892678150022586,-1.330548849915982,0.0,0.0,0,0
0.37000000000000016,1.0625,0,-0.04975792749446859,-1.1402304645999686,-1.2924851728527795,0.0,0.0,0,0
0.38000000000000017,1.125,0,-0.07985475649668115,-1.1087025168052635,-1.2557286416432762,0.0,0.0,0,0
0.3900000000000002,1.125,0,-0.1479128538980087,-1.0926600305583924,-1.2231149194262994,0.0,0.0,0,0
0.4000000000000002,1.0625,0,-0.21374771233880524,-1.0849621447093978,-1.1954843644829192,0.0,0.0,0,0
0.4100000000000002,1.0625,0,-0.25324862740328313,-1.0594436951548318,-1.1682762306173018,0.0,0.0,0,0
0.4200000000000002,1.125,0,-0.27694917644196987,-1.0002146418641364,-1.1346639128666687,0.0,0.0,0,0
0.4300000000000002,1.25,0,-0.2911695058651819,-0.9490263145206992,-1.0975363931974749,0.0,0.0,0,0
0.4400000000000002,1.1875,0,-0.3247017035191092,-0.9183466918692651,-1.061698452931833,0.0,0.0,0,0
0.45000000000000023,1.1875,0,-0.29482102211146555,-0.8435720198430091,-1.0180731663140683,0.0,0.0,0,0
0.46000000000000024,1.25,0,-0.17689261326687933,-0.7791612884666922,-0.970290790744593,0.0,0.0,0,0
0.47000000000000025,1.25,0,-0.08113556796012758,-0.7127093676898278,-0.91877450613364,0.0,0.0,0,0
0.48000000000000026,1.25,0,0.07631865922392345,-0.6337192778061512,-0.8617634604681422,0.0,0.0,0,0
0.49000000000000027,1.125,0,0.27079119553435405,-0.6151084056877547,-0.8124324495120647,0.0,0.0,0,0
0.5000000000000002,1.0625,0,0.3374747173206124,-0.617470258130862,-0.7734400112358241,0.0,0.0,0,0
0.5100000000000002,0.875,0,0.35248483039236744,-0.6409903375843646,-0.7469500765055321,0.0,0.0,0,0
0.5200000000000002,0.3125,0,0.4364908982354205,-0.6419557346371353,-0.7259512081318529,0.0,0.0,0,0
0.5300000000000002,-0.625,0,0.6118945389412522,-0.6617867560196564,-0.7131183177094136,0.0,0.0,0,0
0.5400000000000003,-2.0,0,0.8171367233647513,-0.6876864595027117,-0.7080319460680733,0.0,0.0,0,0
0.5500000000000003,-2.875,0,0.9152820340188508,-0.6761593792251657,-0.7016574326994918,0.0,0.0,0,0
0.5600000000000003,-3.4375,0,1.0241692204113104,-0.6838531777294994,-0.6980965817054934,0.0,0.0,0,0
0.5700000000000003,-3.875,0,1.2145015322467865,-0.716108905929524,-0.7016990465502995,0.0,0.0,0,0
0.5800000000000003,-4.0625,0,1.378700919348072,-0.744363210008818,-0.7102318792420032,0.0,0.0,0,0
0.5900000000000003,-4.1875,0,1.5272205516088433,-0.7719004594029927,-0.7225655952742011,0.0,0.0,0,0
0.6000000000000003,-4.0625,0,1.716332330965306,-0.8440946573846195,-0.7468714076962847,0.0,0.0,0,0
0.6100000000000003,-3.5625,0,2.0297993985791836,-0.9059001254145946,-0.7786771512399466,0.0,0.0,0,0
0.6200000000000003,-3.0,0,2.3928796391475102,-0.9248231711469426,-0.8079063552213459,0.0,0.0,0,0
0.6300000000000003,-2.1875,0,2.735727783488506,-0.9058279564910063,-0.8274906754752778,0.0,0.0,0,0
0.6400000000000003,-0.6875,0,2.9414366700931036,-0.8688562169359438,-0.8357637837674109,0.0,0.0,0,0
0.6500000000000004,0.6875,0,3.0898620020558623,-0.8610142389734934,-0.8408138748086275,0.0,0.0,0,0
0.6600000000000004,2.0,0,3.303917201233517,-0.895716668769278,-0.8517944336007576,0.0,0.0,0,0
0.6700000000000004,3.375,0,3.4823503207401103,-0.9537663845328714,-0.8721888237871802,0.0,0.0,0,0
0.6800000000000004,4.625,0,3.539410192444066,-0.9941735562032661,-0.8965857702703973,0.0,0.0,0,0
0.6900000000000004,5.875,0,3.4736461154664395,-1.0023741345930897,-0.9177434431349357,0.0,0.0,0,0
0.7000000000000004,7.1875,0,3.4091876692798637,-1.0254681210922199,-0.9392883787263926,0.0,0.0,0,0
0.7100000000000004,7.4375,0,3.3455126015679184,-1.0669334380812572,-0.9648173905973655,0.0,0.0,0,0
0.7200000000000004,7.5625,0,3.2073075609407513,-1.1086282218375076,-0.993579556845394,0.0,0.0,0,0
0.7300000000000004,7.5,0,3.149384536564451,-1.1928567840427515,-1.0334350022848655,0.0,0.0,0,0
0.7400000000000004,7.125,0,3.189630721938671,-1.3452225694148416,-1.0957925157108608,0.0,0.0,0,0
0.7500000000000004,6.1875,0,3.3137784331632023,-1.489410172711088,-1.1745160471109064,0.0,0.0,0,0
0.7600000000000005,4.6875,0,3.4882670598979213,-1.570835200577572,-1.2537798778042395,0.0,0.0,0,0
0.7700000000000005,3.3125,0,3.7179602359387527,-1.5737780460865562,-1.3177795114607027,0.0,0.0,0,0
0.7800000000000005,1.8125,0,3.9307761415632516,-1.5774842021706688,-1.369720449602696,0.0,0.0,0,0
0.7900000000000005,0.3125,0,4.033465684937951,-1.5907990557218632,-1.4139361708265294,0.0,0.0,0,0
0.8000000000000005,-1.125,0,4.070079410962771,-1.529868709351484,-1.4371226785315203,0.0,0.0,0,0
0.8100000000000005,-2.625,0,4.067047646577663,-1.441149863962882,-1.4379281156177925,0.0,0.0,0,0
0.8200000000000005,-4.4375,0,4.1402285879465985,-1.3945679686489776,-1.4292560862240293,0.0,0.0,0,0
0.8300000000000005,-5.9375,0,4.209137152767959,-1.4130138811449136,-1.4260076452082062,0.0,0.0,0,0
0.8400000000000005,-7.25,0,4.300482291660775,-1.4602905015553793,-1.4328642164776408,0.0,0.0,0,0
0.8500000000000005,-7.3125,0,4.380289374996465,-1.5031868246367708,-1.446928738109467,0.0,0.0,0,0
0.8600000000000005,-7.0,0,4.328173624997879,-1.5103475591608997,-1.4596125023197535,0.0,0.0,0,0
0.8700000000000006,-6.5625,0,4.221904174998727,-1.5233899495622518,-1.472367991768253,0.0,0.0,0,0
0.8800000000000006,-5.9375,0,4.083142504999236,-1.5709471846558354,-1.4920838303457695,0.0,0.0,0,0
0.8900000000000006,-5.5,0,3.9248855029995413,-1.5967477308724654,-1.5130166104511087,0.0,0.0,0,0
0.9000000000000006,-5.1875,0,3.754931301799725,-1.6115127168319896,-1.5327158317272849,0.0,0.0,0,0
0.9100000000000006,-5.125,0,3.6529587810798345,-1.6162131103710087,-1.5494152874560296,0.0,0.0,0,0
0.9200000000000006,-5.375,0,3.5917752686479005,-1.581935921861677,-1.555919414337159,0.0,0.0,0,0
0.9300000000000006,-5.8125,0,3.58006516118874,-1.5394061218155608,-1.5526167558328394,0.0,0.0,0,0
0.9400000000000006,-6.5625,0,3.598039096713244,-1.4850069756112423,-1.5390947997885198,0.0,0.0,0,0
0.9500000000000006,-7.125,0,3.6088234580279464,-1.4119210636514974,-1.5136600525611155,0.0,0.0,0,0
0.9600000000000006,-7.1875,0,3.5652940748167676,-1.3702915877347106,-1.4849863595958346,0.0,0.0,0,0
0.9700000000000006,-7.0,0,3.3641764448900604,-1.3436223082207575,-1.4567135493208192,0.0,0.0,0,0
0.9800000000000006,-6.75,0,3.1185058669340364,-1.2808253711694633,-1.4215359136905479,0.0,0.0,0,0
0.9900000000000007,-6.5,0,2.8461035201604217,-1.214346505604032,-1.3800980320732448,0.0,0.0,0,0
1.0000000000000007,-6.3125,0,2.657662112096253,-1.1752836973785692,-1.3391351651343097,0.0,0.0,0,0
1.0100000000000007,-6.25,0,2.644597267257752,-1.1689484303523168,-1.3050978181779112,0.0,0.0,0,0
1.0200000000000007,-5.875,0,2.686758360354651,-1.2171167010989055,-1.28750159476211,0.0,0.0,0,0
1.0300000000000007,-5.3125,0,2.7870550162127907,-1.283307937712822,-1.2866628633522523,0.0,0.0,0,0
1.0400000000000007,-4.4375,0,2.922233009727674,-1.3220114453175025,-1.2937325797453023,0.0,0.0,0,0
1.0500000000000007,-3.25,0,3.0283398058366044,-1.331542999334682,-1.3012946636631781,0.0,0.0,0,0
1.0600000000000007,-1.875,0,3.067003883501963,-1.3127816296847712,-1.3035920568674966,0.0,0.0,0,0
1.0700000000000007,0.125,0,2.9902023301011775,-1.2862831171532094,-1.3001302689246392,0.0,0.0,0,0
1.0800000000000007,2.0,0,2.8441213980607065,-1.2980181093712508,-1.2997078370139614,0.0,0.0,0,0
1.0900000000000007,3.875,0,2.656472838836424,-1.3638130170226903,-1.3125288730157072,0.0,0.0,0,0
1.1000000000000008,5.75,0,2.4438837033018546,-1.4483413035181374,-1.3396913591161932,0.0,0.0,0,0
1.1100000000000008,7.625,0,2.191330221981113,-1.5067571456631101,-1.3731045164255766,0.0,0.0,0,0
1.1200000000000008,9.5625,0,1.9147981331886677,-1.5697623894642283,-1.412436091033307,0.0,0.0,0,0
1.1300000000000008,9.0625,0,1.6988788799132006,-1.5901623472765103,-1.4479813422819476,0.0,0.0,0,0
1.1400000000000008,8.8125,0,1.6193273279479203,-1.5375603639640658,-1.4658971466183712,0.0,0.0,0,0
1.1500000000000008,8.6875,0,1.6215963967687523,-1.4992542904097883,-1.4725685753766546,0.0,0.0,0,0
1.1600000000000008,8.125,0,1.4979578380612515,-1.4559545756590024,-1.4692457754331243,0.0,0.0,0,0
1.1700000000000008,7.4375,0,1.298774702836751,-1.3759299651441523,-1.4505826133753297,0.0,0.0,0,0
1.1800000000000008,6.1875,0,1.1792648217020505,-1.3299764131508438,-1.4264613733304325,0.0,0.0,0,0
1.1900000000000008,4.875,0,1.1575588930212304,-1.283366000078586,-1.3978422986800634,0.0,0.0,0,0
1.2000000000000008,3.125,0,1.1945353358127382,-1.1997621448175158,-1.3582262679075539,0.0,0.0,0,0
1.2100000000000009,3.125,0,1.3167212014876428,-1.1140174517725703,-1.3093845046805572,0.0,0.0,0,0
1.2200000000000009,-1.625,0,1.5900327208925857,-1.0793143582860023,-1.2633704754016462,0.0,0.0,0,0
1.2300000000000009,-1.625,0,2.0290196325355514,-1.0760479958378175,-1.2259059794888805,0.0,0.0,0,0
1.2400000000000009,-7.75,0,2.467411779521331,-1.0921163632609667,-1.1991480562432977,0.0,0.0,0,0
1.2500000000000009,-7.375,0,2.7304470677127988,-1.148414877934716,-1.1890014205815813,0.0,0.0,0,0
1.260000000000001,-7.5,0,2.6882682406276794,-1.2076292271619908,-1.1927269818976631,0.0,0.0,0,0
1.270000000000001,-7.4375,0,2.6129609443766073,-1.285122537463711,-1.2112060930108728,0.0,0.0,0,0
1.280000000000001,-7.3125,0,2.567776566625964,-1.370482150665787,-1.2430613045418557,0.0,0.0,0,0
1.290000000000001,-7.4375,0,2.5406659399755784,-1.4557869411448823,-1.285606431862461,0.0,0.0,0,0
1.300000000000001,-7.8125,0,2.499399563985347,-1.528317410711769,-1.334148627632323,0.0,0.0,0,0
1.310000000000001,-7.625,0,2.424639738391208,-1.5661887523605733,-1.3805566525779729,0.0,0.0,0,0
1.320000000000001,-7.5625,0,2.304783843034725,-1.5522741748908486,-1.414900157040548,0.0,0.0,0,0
1.330000000000001,-7.5625,0,2.182870305820835,-1.5322195284203068,-1.4383640313164996,0.0,0.0,0,0
1.340000000000001,-7.4375,0,2.059722183492501,-1.5176125442862811,-1.4542137339104562,0.0,0.0,0,0
1.350000000000001,-7.125,0,2.0108333100955007,-1.4774454311954428,-1.4588600733674535,0.0,0.0,0,0
1.360000000000001,-6.75,0,2.0564999860573003,-1.4086381558065872,-1.4488156898552802,0.0,0.0,0,0
1.370000000000001,-6.0,0,2.1338999916343804,-1.3590658055970226,-1.4308657130036286,0.0,0.0,0,0
1.380000000000001,-5.0,0,2.1553399949806282,-1.350949507853135,-1.41488247197353,0.0,0.0,0,0
1.390000000000001,-4.0625,0,2.0682039969883768,-1.2740744647802194,-1.386720870534868,0.0,0.0,0,0
1.400000000000001,-2.25,0,1.915922398193026,-1.1737090343737935,-1.3441185033026533,0.0,0.0,0,0
1.410000000000001,-0.6875,0,1.7245534389158155,-1.1184033074155209,-1.2989754641252267,0.0,0.0,0,0
1.420000000000001,0.75,0,1.5097320633494893,-1.0830931958505299,-1.255799010470287,0.0,0.0,0,0
1.430000000000001,2.125,0,1.3558392380096935,-1.0800394972732725,-1.2206471078308843,0.0,0.0,0,0
1.440000000000001,3.25,0,1.3135035428058162,-1.0845678114251847,-1.1934312485497443,0.0,0.0,0,0
1.450000000000001,4.1875,0,1.3631021256834899,-1.0723704327355548,-1.1692190853869064,0.0,0.0,0,0
1.460000000000001,5.25,0,1.467861275410094,-1.0333927510324665,-1.1420538185160183,0.0,0.0,0,0
1.470000000000001,5.9375,0,1.5807167652460565,-0.9775417192799507,-1.1091513986688049,0.0,0.0,0,0
1.480000000000001,6.5,0,1.698430059147634,-0.9381270830633708,-1.0749465355477181,0.0,0.0,0,0
1.490000000000001,6.8125,0,1.7690580354885803,-0.9365722723583123,-1.047271682909837,0.0,0.0,0,0
1.500000000000001,6.9375,0,1.8114348212931481,-0.9327744451048978,-1.0243722353488491,0.0,0.0,0,0
1.5100000000000011,6.8125,0,1.8618608927758888,-0.8812177153038802,-0.9957413313398554,0.0,0.0,0,0
1.5200000000000011,6.4375,0,1.9171165356655333,-0.8259141629694846,-0.9617758976657813,0.0,0.0,0,0
1.5300000000000011,5.8125,0,1.97526992139932,-0.7756924269499894,-0.924559203522623,0.0,0.0,0,0
1.5400000000000011,4.9375,0,2.0351619528395917,-0.7556309802852992,-0.8907735588751582,0.0,0.0,0,0
1.5500000000000012,3.875,0,2.121097171703755,-0.7480102254469156,-0.8622208921895097,0.0,0.0,0,0
1.5600000000000012,2.5625,0,2.222658303022253,-0.7860347338430196,-0.8469836605202117,0.0,0.0,0,0
1.5700000000000012,1.0,0,2.333594981813352,-0.8732103078324551,-0.8522289899826605,0.0,0.0,0,0
1.5800000000000012,-0.6875,0,2.475156989088011,-0.8590162361472736,-0.853586439215583,0.0,0.0,0,0
1.5900000000000012,-2.5625,0,2.610094193452807,-0.7452265832616921,-0.8319144680248048,0.0,0.0,0,0
1.6000000000000012,-2.5625,0,2.766056516071684,-0.6020520817027866,-0.7859419907604013,0.0,0.0,0,0
1.6100000000000012,-7.125,0,2.8846339096430107,-0.47389167621387057,-0.723531927851095,0.0,0.0,0,0
1.6200000000000012,-8.8125,0,2.9557803457858065,-0.3862671865300918,-0.6560789795868944,0.0,0.0,0,0
1.6300000000000012,-8.6875,0,2.923468207471484,-0.35005331002866985,-0.5948738456752496,0.0,0.0,0,0
1.6400000000000012,-8.6875,0,2.7040809244828905,-0.3652222857034926,-0.5489435336808981,0.0,0.0,0,0
1.6500000000000012,-8.5,0,2.4974485546897345,-0.39236836486847204,-0.5176284999184129,0.0,0.0,0,0
1.6600000000000013,-8.375,0,2.373469132813841,-0.42933007917109184,-0.4999688157689487,0.0,0.0,0,0
1.6700000000000013,-8.375,0,2.3240814796883047,-0.5059148189218681,-0.5011580163995326,0.0,0.0,0,0
1.6800000000000013,-8.5625,0,2.3194488878129826,-0.5634541942290228,-0.5136172519654305,0.0,0.0,0,0
1.6900000000000013,-8.3125,0,2.2916693326877895,-0.6725240225251774,-0.5453986060773799,0.0,0.0,0,0
1.7000000000000013,-8.1875,0,2.275001599612674,-0.8984051227136256,-0.6159999094046291,0.0,0.0,0,0
1.7100000000000013,-8.0625,0,2.3400009597676044,-1.0794850847663415,-0.7086969444769715,0.0,0.0,0,0
1.7200000000000013,-7.8125,0,2.4790005758605624,-1.1268962661638102,-0.7923368088143392,0.0,0.0,0,0
1.7300000000000013,-7.625,0,2.662400345516337,-1.0849841507824345,-0.8508662772079584,0.0,0.0,0,0
1.7400000000000013,-7.4375,0,2.9474402073098025,-1.0189037293095862,-0.8844737676282839,0.0,0.0,0,0
1.7500000000000013,-7.0625,0,3.2184641243858816,-0.9911583492543979,-0.9058106839535067,0.0,0.0,0,0
1.7600000000000013,-6.625,0,3.381078474631529,-1.0114119878320869,-0.9269309447292228,0.0,0.0,0,0
1.7700000000000014,-6.0625,0,3.428647084778918,-0.9940970642317313,-0.9403641686297244,0.0,0.0,0,0
1.7800000000000014,-5.5,0,3.3821882508673506,-0.8991552070642893,-0.9321223763166375,0.0,0.0,0,0
1.7900000000000014,-5.0,0,3.3043129505204103,-0.7580673317590213,-0.8973113674051142,0.0,0.0,0,0
1.8000000000000014,-4.6875,0,3.207587770312246,-0.6157590705579192,-0.8410009080356752,0.0,0.0,0,0
1.8100000000000014,-4.5,0,3.174552662187348,-0.5104651022183468,-0.7748937468722095,0.0,0.0,0,0
1.8200000000000014,-4.5,0,3.1547315973124084,-0.4440278404563479,-0.7087205655890372,0.0,0.0,0,0
1.8300000000000014,-4.4375,0,3.192838958387445,-0.4209117777262943,-0.6511588080164886,0.0,0.0,0,0
1.8400000000000014,-4.4375,0,3.240703375032467,-0.4396942611686897,-0.6088658986469289,0.0,0.0,0,0
1.8500000000000014,-4.5625,0,3.31942202501948,-0.4787451023466666,-0.5828417393868763,0.0,0.0,0,0
1.8600000000000014,-4.5625,0,3.4166532150116877,-0.5371258131996857,-0.5736985541494382,0.0,0.0,0,0
1.8700000000000014,-4.4375,0,3.474991929007013,-0.6390901584994223,-0.586776875019435,0.0,0.0,0,0
1.8800000000000014,-4.1875,0,3.4099951574042078,-0.7102854382247816,-0.6114785876605043,0.0,0.0,0,0
1.8900000000000015,-3.9375,0,3.2959970944425248,-0.7603075072155281,-0.641244371571509,0.0,0.0,0,0
1.9000000000000015,-3.8125,0,3.0775982566655147,-0.8603141313599688,-0.6850583235292009,0.0,0.0,0,0
1.9100000000000015,-3.75,0,2.871558953999309,-0.9163336839890478,-0.7313133956211704,0.0,0.0,0,0
1.9200000000000015,-3.6875,0,2.7229353723995855,-0.9285765158398849,-0.7707660196649133,0.0,0.0,0,0
1.9300000000000015,-3.625,0,2.583761223439751,-0.9465355351927416,-0.8059199227704789,0.0,0.0,0,0
1.9400000000000015,-3.625,0,2.4752567340638505,-0.9244417001146038,-0.8296242782393037,0.0,0.0,0,0
1.9500000000000015,-3.625,0,2.3851540404383105,-0.8948377380633034,-0.8426669702041036,0.0,0.0,0,0
1.9600000000000015,-3.6875,0,2.306092424262986,-0.8293397437267913,-0.8400015249086412,0.0,0.0,0,0
1.9700000000000015,-3.6875,0,2.2586554545577915,-0.7497890233610366,-0.8219590245991204,0.0,0.0,0,0
1.9800000000000015,-3.6875,0,2.255193272734675,-0.7093900382025518,-0.7994452273198066,0.0,0.0,0,0
1.9900000000000015,-3.625,0,2.278115963640805,-0.6611721336878253,-0.7717906085934103,0.0,0.0,0,0
2.0000000000000013,-3.5625,0,2.291869578184483,-0.6701363291448057,-0.7514597527036894,0.0,0.0,0,0
2.010000000000001,-3.375,0,2.3001217469106896,-0.7629810624145934,-0.7537640146458702,0.0,0.0,0,0
2.020000000000001,-3.0,0,2.2050730481464136,-0.8641792902220788,-0.775847069761112,0.0,0.0,0,0
2.0300000000000007,-2.375,0,2.148043828887848,-0.9180747226865162,-0.8042926003461928,0.0,0.0,0,0
2.0400000000000005,-1.625,0,1.9638262973327087,-0.9511422639212873,-0.8336625330612117,0.0,0.0,0,0
2.0500000000000003,-0.25,0,1.7032957783996254,-0.9702719100914409,-0.8609844084672575,0.0,0.0,0,0
2.06,0.9375,0,1.3219774670397753,-0.9960741273653724,-0.8880023522468805,0.0,0.0,0,0
2.07,2.1875,0,0.8931864802238652,-1.0425000599801104,-0.9189018937935265,0.0,0.0,0,0
2.0799999999999996,3.3125,0,0.5109118881343191,-1.0849373267127573,-0.9521089803773726,0.0,0.0,0,0
2.0899999999999994,4.1875,0,0.13154713288059142,-1.1122658942091217,-0.9841403631437224,0.0,0.0,0,0
2.099999999999999,4.8125,0,-0.14607172027164517,-1.0876735199977918,-1.0048469945145364,0.0,0.0,0,0
2.109999999999999,5.3125,0,-0.2376430321629871,-1.0240263615822092,-1.008682867928071,0.0,0.0,0,0
2.1199999999999988,5.375,0,-0.21758581929779228,-0.9520821179724802,-0.9973627179369529,0.0,0.0,0,0
2.1299999999999986,5.3125,0,-0.15555149157867534,-0.8831075311734576,-0.974511680584254,0.0,0.0,0,0
2.1399999999999983,5.25,0,-0.0683308949472052,-0.7945536730353281,-0.9385200790744688,0.0,0.0,0,0
2.149999999999998,5.0625,0,0.034001463031676886,-0.7048234151443544,-0.891780746288446,0.0,0.0,0,0
2.159999999999998,4.5625,0,0.07040087781900614,-0.6120460475896651,-0.8358338065486898,0.0,0.0,0,0
2.1699999999999977,3.9375,0,0.1172405266914037,-0.5245075837713686,-0.7735685619932255,0.0,0.0,0,0
2.1799999999999975,2.8125,0,0.22034431601484222,-0.4437157545158996,-0.7075980004977604,0.0,0.0,0,0
2.1899999999999973,1.75,0,0.3822065896089053,-0.3434826396270425,-0.6347749283236168,0.0,0.0,0,0
2.199999999999997,0.625,0,0.5793239537653432,-0.26919538465447723,-0.5616590195897888,0.0,0.0,0,0
2.209999999999997,-0.4375,0,0.7975943722592059,-0.20513635259126087,-0.4903544861900833,0.0,0.0,0,0
2.2199999999999966,-1.5625,0,1.0535566233555236,-0.1592039011799361,-0.4241243691880539,0.0,0.0,0,0
2.2299999999999964,-2.6875,0,1.382133974013314,-0.15269820474180273,-0.3698391362988037,0.0,0.0,0,0
2.239999999999996,-3.6875,0,1.7042803844079883,-0.11840330337894603,-0.3195519697148322,0.0,0.0,0,0
2.249999999999996,-4.3125,0,1.947568230644793,-0.11458605081410114,-0.278558785934686,0.0,0.0,0,0
2.259999999999996,-4.6875,0,2.0935409383868757,-0.17290722752150875,-0.25742847425205057,0.0,0.0,0,0
2.2699999999999956,-4.8125,0,2.1311245630321256,-0.29678590284385575,-0.26529995997041156,0.0,0.0,0,0
2.2799999999999954,-4.625,0,2.1036747378192753,-0.4417672816797974,-0.30059342431228875,0.0,0.0,0,0
2.289999999999995,-4.3125,0,2.037204842691565,-0.5882527699083907,-0.3581252934315091,0.0,0.0,0,0
2.299999999999995,-3.75,0,2.047322905614939,-0.8029432953747161,-0.4470888938201505,0.0,0.0,0,0
2.3099999999999947,-3.0625,0,2.0533937433689635,-1.02623304776524,-0.5629177246091683,0.0,0.0,0,0
2.3199999999999945,-2.1875,0,2.057036246021378,-1.2052974072293379,-0.6913936611332022,0.0,0.0,0,0
2.3299999999999943,-1.125,0,2.009221747612827,-1.3044245792547957,-0.8139998447575209,0.0,0.0,0,0
2.339999999999994,-0.0,0,1.880533048567696,-1.3376738396879706,-0.9187346437436107,0.0,0.0,0,0
2.349999999999994,0.9375,0,1.7283198291406177,-1.351226728728665,-1.0052330607406215,0.0,0.0,0,0
2.3599999999999937,1.8125,0,1.6119918974843706,-1.3717895946386234,-1.0785443675202218,0.0,0.0,0,0
2.3699999999999934,2.4375,0,1.4921951384906222,-1.4048273738272399,-1.1438009687816255,0.0,0.0,0,0
2.3799999999999932,2.8125,0,1.3703170830943734,-1.3807462562143236,-1.191190026268165,0.0,0.0,0,0
2.389999999999993,3.0625,0,1.272190249856624,-1.303482520212421,-1.2136485250570161,0.0,0.0,0,0
2.399999999999993,2.9375,0,1.2133141499139743,-1.201270631588152,-1.2111729463632435,0.0,0.0,0,0
2.4099999999999926,2.5,0,1.1779884899483846,-1.0944882916686078,-1.1878360154243164,0.0,0.0,0,0
2.4199999999999924,1.8125,0,1.2317930939690307,-1.022886132912112,-1.1548460389218755,0.0,0.0,0,0
2.429999999999992,0.875,0,1.3640758563814184,-0.9722760603947862,-1.1183320432164576,0.0,0.0,0,0
2.439999999999992,-0.125,0,1.5434455138288512,-0.9175106184359539,-1.078167758260357,0.0,0.0,0,0
2.4499999999999917,-1.5,0,1.7510673082973107,-0.9006937696863446,-1.0426729605455545,0.0,0.0,0,0
2.4599999999999915,-2.625,0,1.9256403849783863,-0.8962701329809659,-1.013392395032637,0.0,0.0,0,0
2.4699999999999913,-3.75,0,2.0053842309870316,-0.9059492059834302,-0.9919037572227956,0.0,0.0,0,0
2.479999999999991,-4.875,0,2.028230538592219,-0.9772317985213596,-0.9889693654825084,0.0,0.0,0,0
2.489999999999991,-6.0625,0,2.0419383231553314,-0.9661822794607816,-0.984411948278163,0.0,0.0,0,0
2.4999999999999907,-7.3125,0,2.100162993893199,-0.9137871541419182,-0.9702869894509141,0.0,0.0,0,0
2.5099999999999905,-8.625,0,2.135097796335919,-0.9187492965747803,-0.9599794508756874,0.0,0.0,0,0
2.5199999999999902,-9.3125,0,2.1560586778015516,-0.9498311303740725,-0.9579497867753644,0.0,0.0,0,0
2.52999999999999,-9.125,0,2.1436352066809308,-0.9703649639294156,-0.9604328222061747,0.0,0.0,0,0
2.53999999999999,-9.0,0,2.036181124008558,-0.9633422704000123,-0.9610147118449421,0.0,0.0,0,0
2.5499999999999896,-8.875,0,1.896708674405135,-0.9634796461467641,-0.9615076987053066,0.0,0.0,0,0
2.5599999999999894,-8.625,0,1.788025204643081,-0.9965357987947422,-0.9685133187231937,0.0,0.0,0,0
2.569999999999989,-8.5,0,1.6978151227858485,-1.02016535890529,-0.9788437267596128,0.0,0.0,0,0
2.579999999999989,-8.5625,0,1.6186890736715092,-1.053581853688653,-0.9937913521454209,0.0,0.0,0,0
2.5899999999999888,-8.5625,0,1.5962134442029055,-1.107115694958429,-1.0164562207080223,0.0,0.0,0,0
2.5999999999999885,-8.4375,0,1.5327280665217433,-1.154935676547758,-1.0441521118759696,0.0,0.0,0,0
2.6099999999999883,-8.125,0,1.344636839913046,-1.2281542905541667,-1.080952547611609,0.0,0.0,0,0
2.619999999999988,-7.8125,0,1.2817821039478277,-1.2746475247936315,-1.1196915430480134,0.0,0.0,0,0
2.629999999999988,-7.375,0,1.2940692623686965,-1.3129444045304757,-1.158342115344506,0.0,0.0,0,0
2.6399999999999877,-6.25,0,1.301441557421218,-1.3284485025696764,-1.1923633927895398,0.0,0.0,0,0
2.6499999999999875,-4.6875,0,1.2058649344527308,-1.2719358410600115,-1.2082778824436344,0.0,0.0,0,0
2.6599999999999873,-4.6875,0,0.9235189606716385,-1.2107890825892866,-1.2087801224727648,0.0,0.0,0,0
2.669999999999987,-0.0,0,0.5541113764029831,-1.1914061594913539,-1.2053053298764826,0.0,0.0,0,0
2.679999999999987,-0.0,0,0.10746682584178988,-1.2152484201891451,-1.2072939479390152,0.0,0.0,0,0
2.6899999999999866,5.125,0,-0.31051990449492606,-1.2431239851791789,-1.2144599553870479,0.0,0.0,0,0
2.6999999999999864,5.125,0,-0.6613119426969557,-1.2613260625700775,-1.223833176823654,0.0,0.0,0,0
2.709999999999986,9.4375,0,-0.9467871656181734,-1.2999922744329968,-1.2390649963455223,0.0,0.0,0,0
2.719999999999986,10.5,0,-1.168072299370904,-1.3219825720032512,-1.2556485114770681,0.0,0.0,0,0
2.7299999999999858,10.0625,0,-1.2758433796225424,-1.3167425648120723,-1.267867322144069,0.0,0.0,0,0
2.7399999999999856,9.1875,0,-1.1905060277735253,-1.3022104410521116,-1.2747359459256775,0.0,0.0,0,0
2.7499999999999853,8.0625,0,-1.064303616664115,-1.2525003765633869,-1.2702888320532193,0.0,0.0,0,0
2.759999999999985,6.6875,0,-0.9135821699984691,-1.1687379629162196,-1.2499786582258192,0.0,0.0,0,0
2.769999999999985,5.125,0,-0.7481493019990815,-1.089584313685405,-1.2178997893177366,0.0,0.0,0,0
2.7799999999999847,3.625,0,-0.5738895811994489,-1.0919910316520303,-1.1927180377845952,0.0,0.0,0,0
2.7899999999999845,2.0,0,-0.36933374871966934,-1.1640615956487703,-1.1869867493574302,0.0,0.0,0,0
2.7999999999999843,2.0,0,-0.1466002492318016,-1.234443983799918,-1.1964781962459279,0.0,0.0,0,0
2.809999999999984,-1.75,0,0.062039850460919074,-1.2733489420703115,-1.2118523454108046,0.0,0.0,0,0
2.819999999999984,-3.25,0,0.26222391027655145,-1.2794910372987125,-1.2253800837883864,0.0,0.0,0,0
2.8299999999999836,-4.4375,0,0.45733434616593094,-1.2763531849485807,-1.2355747040204252,0.0,0.0,0,0
2.8399999999999834,-5.1875,0,0.6244006076995585,-1.2488205280791291,-1.2382238688321658,0.0,0.0,0,0
2.849999999999983,-5.5625,0,0.7496403646197352,-1.2319913577371546,-1.2369773666131636,0.0,0.0,0,0
2.859999999999983,-5.5,0,0.7497842187718411,-1.2637088822618643,-1.2423236697429036,0.0,0.0,0,0
2.869999999999983,-4.8125,0,0.6498705312631047,-1.3032324051520225,-1.2545054168247274,0.0,0.0,0,0
2.8799999999999826,-4.0,0,0.5149223187578629,-1.2832967313760415,-1.2602636797349902,0.0,0.0,0,0
2.8899999999999824,-2.875,0,0.3089533912547177,-1.2537620605301092,-1.258963355894014,0.0,0.0,0,0
2.899999999999982,-1.6875,0,0.08537203475283062,-1.255361113198223,-1.258242907354856,0.0,0.0,0,0
2.909999999999982,-0.5,0,-0.09877677914830166,-1.249073125749129,-1.2564089510337106,0.0,0.0,0,0
2.9199999999999817,0.625,0,-0.259266067488981,-1.2123786542192416,-1.2476028916708168,0.0,0.0,0,0
2.9299999999999815,1.875,0,-0.38055964049338864,-1.104131097181806,-1.2189085327730145,0.0,0.0,0,0
2.9399999999999813,3.0,0,-0.5283357842960332,-0.9763417390450991,-1.1703951740274314,0.0,0.0,0,0
2.949999999999981,4.0625,0,-0.6670014705776199,-0.8475685057275517,-1.1058298403674556,0.0,0.0,0,0
2.959999999999981,4.9375,0,-0.750200882346572,-0.7281913556444598,-1.0303021434228563,0.0,0.0,0,0
2.9699999999999807,5.875,0,-0.7251205294079432,-0.588736016393935,-0.9419889180170722,0.0,0.0,0,0
2.9799999999999804,6.375,0,-0.685072317644766,-0.438717951337744,-0.8413347246812066,0.0,0.0,0,0
2.9899999999999802,6.8125,0,-0.6360433905868595,-0.3660179352080664,-0.7462713667865786,0.0,0.0,0,0
2.99999999999998,7.25,0,-0.5566260343521158,-0.3342540378225166,-0.6638679009937662,0.0,0.0,0,0
3.00999999999998,7.6875,0,-0.4839756206112695,-0.31081766433180547,-0.5932578536613741,0.0,0.0,0,0
3.0199999999999796,7.9375,0,-0.4653853723667617,-0.31441873548222954,-0.5374900300255452,0.0,0.0,0,0
3.0299999999999794,8.125,0,-0.47923122342005703,-0.3003212645589593,-0.49005627693222803,0.0,0.0,0,0
3.039999999999979,8.1875,0,-0.4625387340520343,-0.28774335918225363,-0.4495936933822331,0.0,0.0,0,0
3.049999999999979,8.125,0,-0.4525232404312206,-0.35925049874308446,-0.43152505445440337,0.0,0.0,0,0
3.0599999999999787,8.0,0,-0.4215139442587324,-0.4678582089956227,-0.43879168536264723,0.0,0.0,0,0
3.0699999999999785,7.6875,0,-0.3529083665552394,-0.5671002830353453,-0.46445340489718684,0.0,0.0,0,0
3.0799999999999783,7.3125,0,-0.26174501993314364,-0.6372258713866468,-0.4990078981950788,0.0,0.0,0,0
3.089999999999978,6.75,0,-0.18204701195988618,-0.6651281022176553,-0.5322319389995941,0.0,0.0,0,0
3.099999999999978,6.1875,0,-0.10922820717593171,-0.6324293995951501,-0.5522714311187052,0.0,0.0,0,0
3.1099999999999777,5.5,0,-0.04053692430555902,-0.5865779143549831,-0.5591327277659609,0.0,0.0,0,0
3.1199999999999775,4.6875,0,0.025677845416664593,-0.5635987345819715,-0.560025929129163,0.0,0.0,0,0
3.1299999999999772,3.8125,0,0.09040670724999876,-0.5225473033780645,-0.5525302039789433,0.0,0.0,0,0
3.139999999999977,2.75,0,0.15424402434999926,-0.5014753966413923,-0.542319242511433,0.0,0.0,0,0
3.149999999999977,1.625,0,0.26754641460999956,-0.5018451615245221,-0.5342244263140509,0.0,0.0,0,0
3.1599999999999766,0.375,0,0.38552784876599977,-0.4982159163469285,-0.5270227243206264,0.0,0.0,0,0
3.1699999999999764,-1.25,0,0.5313167092595998,-0.4849743492314995,-0.5186130493028009,0.0,0.0,0,0
3.179999999999976,-2.5625,0,0.6437900255557599,-0.4689203691722862,-0.508674513276698,0.0,0.0,0,0
3.189999999999976,-3.875,0,0.7362740153334559,-0.5062669720494455,-0.5081930050312475,0.0,0.0,0,0
3.1999999999999758,-5.1875,0,0.8167644092000735,-0.5454102030984419,-0.5156364446446864,0.0,0.0,0,0
3.2099999999999755,-6.4375,0,0.9150586455200441,-0.6058534746735778,-0.5336798506504647,0.0,0.0,0,0
3.2199999999999753,-7.75,0,0.9990351873120265,-0.7017330979582892,-0.5672905001120296,0.0,0.0,0,0
3.229999999999975,-8.9375,0,1.0744211123872158,-0.7835757933038002,-0.6105475587503838,0.0,0.0,0,0
3.239999999999975,-9.0,0,1.1196526674323295,-0.8469420025658397,-0.657826447513475,0.0,0.0,0,0
3.2499999999999747,-8.75,0,1.0717916004593977,-0.93203647396467,-0.712668452803714,0.0,0.0,0,0
3.2599999999999745,-8.5,0,0.9180749602756386,-1.0381893512783913,-0.7777726324986495,0.0,0.0,0,0
3.2699999999999743,-7.875,0,0.7758449761653832,-1.108382894529254,-0.8438946849047703,0.0,0.0,0,0
3.279999999999974,-7.3125,0,0.6905069856992299,-1.1398643868580103,-0.9030886252954182,0.0,0.0,0,0
3.289999999999974,-6.8125,0,0.5643041914195379,-1.1649632436397053,-0.9554635489642755,0.0,0.0,0,0
3.2999999999999736,-6.5,0,0.46358251485172275,-1.2038019466912022,-1.005131228509661,0.0,0.0,0,0
3.3099999999999734,-5.875,0,0.4031495089110336,-1.2266910108887572,-1.0494431849854802,0.0,0.0,0,0
3.319999999999973,-5.4375,0,0.39188970534662015,-1.2872878032506612,-1.0970121086385165,0.0,0.0,0,0
3.329999999999973,-4.9375,0,0.38513382320797207,-1.3268346338242396,-1.1429766136756612,0.0,0.0,0,0
3.3399999999999728,-4.4375,0,0.35608029392478324,-1.2920351644219839,-1.1727883238249257,0.0,0.0,0,0
3.3499999999999726,-3.8125,0,0.31364817635486997,-1.2170728680960787,-1.1816452326791562,0.0,0.0,0,0
3.3599999999999723,-3.1875,0,0.23818890581292196,-1.150718155249229,-1.175459817193171,0.0,0.0,0,0
3.369999999999972,-2.5625,0,0.14291334348775317,-1.0868130578648536,-1.1577304653275076,0.0,0.0,0,0
3.379999999999972,-1.8125,0,0.0857480060926519,-0.9919198573615733,-1.1245683437343206,0.0,0.0,0,0
3.3899999999999717,-1.25,0,0.07644880365559115,-0.8831484693821661,-1.07628436886389,0.0,0.0,0,0
3.3999999999999715,-0.75,0,0.12086928219335469,-0.7899099375871853,-1.0190094826085487,0.0,0.0,0,0
3.4099999999999713,-0.25,0,0.12252156931601281,-0.705407355061492,-0.9562890570991374,0.0,0.0,0,0
3.419999999999971,0.125,0,0.09851294158960769,-0.61150940172441,-0.8873331260241919,0.0,0.0,0,0
3.429999999999971,0.5625,0,0.08410776495376461,-0.5435583262431186,-0.8185781660679772,0.0,0.0,0,0
3.4399999999999706,0.9375,0,0.07546465897225876,-0.5294994125731388,-0.7607624153690096,0.0,0.0,0,0
3.4499999999999704,1.0625,0,0.045278795383355254,-0.5294157447262942,-0.7144930812404665,0.0,0.0,0,0
3.45999999999997,1.0,0,0.02716727723001315,-0.5595566660559681,-0.6835057982035668,0.0,0.0,0,0
3.46999999999997,0.875,0,0.04130036633800789,-0.5795187520729417,-0.6627083889774419,0.0,0.0,0,0
3.47999999999997,0.75,0,0.04978021980280474,-0.5625195792112955,-0.6426706270242126,0.0,0.0,0,0
3.4899999999999696,0.75,0,0.07986813188168285,-0.5951773952520707,-0.6331719806697843,0.0,0.0,0,0
3.4999999999999694,0.125,0,0.12292087912900972,-0.6685918996812835,-0.6402559644720841,0.0,0.0,0,0
3.509999999999969,-0.125,0,0.19875252747740582,-0.7498624939224938,-0.662177270362166,0.0,0.0,0,0
3.519999999999969,-0.5,0,0.2442515164864435,-0.8456783998552782,-0.6988774962607884,0.0,0.0,0,0
3.5299999999999687,-0.75,0,0.2715509098918661,-0.9522104822117711,-0.7495440934509849,0.0,0.0,0,0
3.5399999999999685,-1.0,0,0.3129305459351197,-1.0901851090584043,-0.8176722965724688,0.0,0.0,0,0
3.5499999999999683,-1.1875,0,0.36275832756107185,-1.2143709086658787,-0.8970120189911507,0.0,0.0,0,0
3.559999999999968,-1.375,0,0.39265499653664315,-1.2607248282631738,-0.9697545808455552,0.0,0.0,0,0
3.569999999999968,0,0,0.4105929979219859,-1.248270176951989,-1.025457700066842,0.0,0.0,0,0
3.5799999999999677,-1.5625,0,0.39635579875319155,-1.1629493336817964,-1.0529560267898328,0.0,0.0,0,0
3.5899999999999674,-1.625,0,0.38781347925191495,-1.074195765091386,-1.0572039744501436,0.0,0.0,0,0
3.5999999999999672,-1.625,0,0.38268808755114897,-1.0228168293798818,-1.0503265454360913,0.0,0.0,0,0
3.609999999999967,-1.625,0,0.3796128525306894,-1.000737763554223,-1.0404087890597176,0.0,0.0,0,0
3.619999999999967,-1.625,0,0.4027677115184136,-0.9910631976568263,-1.0305396707791394,0.0,0.0,0,0
3.6299999999999666,-1.625,0,0.4166606269110482,-0.9574612958859805,-1.0159239958005075,0.0,0.0,0,0
3.6399999999999664,-1.625,0,0.42499637614662894,-0.9268147566790536,-0.9981021479762169,0.0,0.0,0,0
3.649999999999966,-1.5,0,0.4299978256879774,-0.9247809579817147,-0.9834379099773163,0.0,0.0,0,0
3.659999999999966,-1.375,0,0.43299869541278646,-0.9414145358145699,-0.9750332351447671,0.0,0.0,0,0
3.6699999999999657,-1.25,0,0.4097992172476719,-0.982417573525271,-0.9765101028208679,0.0,0.0,0,0
3.6799999999999655,-1.125,0,0.3958795303486031,-1.0349436533230978,-0.9881968129213139,0.0,0.0,0,0
3.6899999999999653,-1.0625,0,0.4125277182091619,-1.1009531521195646,-1.0107480807609641,0.0,0.0,0,0
3.699999999999965,-0.875,0,0.4225166309254972,-1.1185895486312483,-1.0323163743350208,0.0,0.0,0,0
3.709999999999965,-0.6875,0,0.4035099785552983,-1.0661544630472353,-1.0390839920774637,0.0,0.0,0,0
3.7199999999999647,-0.5,0,0.34210598713317897,-1.0190502951345286,-1.0350772526888767,0.0,0.0,0,0
3.7299999999999645,-0.375,0,0.23026359227990736,-0.9726863323093603,-1.0225990686129736,0.0,0.0,0,0
3.7399999999999642,-0.25,0,0.0881581553679444,-0.9380742819814665,-1.0056941112866722,0.0,0.0,0,0
3.749999999999964,-0.125,0,-0.02210510677923337,-0.921646296881114,-0.9888845484055606,0.0,0.0,0,0
3.759999999999964,-0.1875,0,-0.11326306406754003,-0.9167662399445929,-0.9744608867133671,0.0,0.0,0,0
3.7699999999999636,-0.3125,0,-0.21795783844052402,-0.9279004724056318,-0.9651488038518201,0.0,0.0,0,0
3.7799999999999634,-0.4375,0,-0.3057747030643144,-0.9781075377590703,-0.9677405506332702,0.0,0.0,0,0
3.789999999999963,-0.5625,0,-0.35846482183858863,-1.0606582390921262,-0.9863240883250414,0.0,0.0,0,0
3.799999999999963,-0.625,0,-0.41507889310315316,-1.1348270220324794,-1.016024675066529,0.0,0.0,0,0
3.8099999999999627,-0.8125,0,-0.49904733586189187,-1.1966516364628093,-1.052150067345785,0.0,0.0,0,0
3.8199999999999625,-0.875,0,-0.5494284015171351,-1.2141256420345659,-1.0845451822835412,0.0,0.0,0,0
3.8299999999999623,-0.9375,0,-0.5546570409102811,-1.2081391267036268,-1.1092639711675583,0.0,0.0,0,0
3.839999999999962,-0.9375,0,-0.5327942245461686,-1.210931598237675,-1.1295974965815816,0.0,0.0,0,0
3.849999999999962,-0.875,0,-0.4696765347277012,-1.1829846046498826,-1.1402749181952418,0.0,0.0,0,0
3.8599999999999617,-0.5625,0,-0.4318059208366207,-1.1678879488593854,-1.1457975243280705,0.0,0.0,0,0
3.8699999999999615,0.0625,0,-0.4340835525019724,-1.1503765279372533,-1.146713325049907,0.0,0.0,0,0
3.8799999999999613,0.875,0,-0.4354501315011834,-1.0951844656070906,-1.1364075531613438,0.0,0.0,0,0
3.889999999999961,1.8125,0,-0.48627007890071006,-1.010568182325527,-1.1112396789941805,0.0,0.0,0,0
3.899999999999961,2.6875,0,-0.6167620473404261,-0.9137477450133964,-1.0717412921980236,0.0,0.0,0,0
3.9099999999999606,3.5,0,-0.7450572284042556,-0.8062927433432645,-1.0186515824270719,0.0,0.0,0,0
3.9199999999999604,4.0625,0,-0.7720343370425533,-0.6679145090818703,-0.9485041677580317,0.0,0.0,0,0
3.92999999999996,4.4375,0,-0.763220602225532,-0.5539290035200252,-0.8695891349104303,0.0,0.0,0,0
3.93999999999996,4.5625,0,-0.7579323613353193,-0.4322089462460857,-0.7821130971775614,0.0,0.0,0,0
3.9499999999999598,4.625,0,-0.7547594168011915,-0.34131028285717646,-0.6939525343134844,0.0,0.0,0,0
3.9599999999999596,4.5625,0,-0.727855650080715,-0.31947981161406114,-0.6190579897735997,0.0,0.0,0,0
3.9699999999999593,4.375,0,-0.686713390048429,-0.2770055012847913,-0.550647492075838,0.0,0.0,0,0
3.979999999999959,4.0,0,-0.6370280340290574,-0.23546863900769335,-0.4876117214622091,0.0,0.0,0,0
3.989999999999959,3.4375,0,-0.6072168204174344,-0.19351499408932618,-0.4287923759876325,0.0,0.0,0,0
3.9999999999999587,3.0,0,-0.5393300922504607,-0.1798253387294738,-0.37899896853600074,0.0,0.0,0,0
4.009999999999959,2.375,0,-0.4485980553502764,-0.19518921535960776,-0.3422370179007222,0.0,0.0,0,0
4.019999999999959,1.6875,0,-0.3441588332101658,-0.22172032431493655,-0.31813367918356505,0.0,0.0,0,0
4.0299999999999585,0.9375,0,-0.2064952999260995,-0.23462981708601713,-0.30143290676405543,0.0,0.0,0,0
4.039999999999958,0.125,0,-0.02389717995565968,-0.23767039498120063,-0.2886804044074845,0.0,0.0,0,0
4.049999999999958,-0.5625,0,0.13566169202660422,-0.33576456120987946,-0.2980972357679635,0.0,0.0,0,0
4.059999999999958,-1.3125,0,0.28139701521596255,-0.45465515959365405,-0.3294088205331016,0.0,0.0,0,0
4.069999999999958,-2.0,0,0.39383820912957757,-0.5128642822734883,-0.36609991288117893,0.0,0.0,0,0
4.079999999999957,-2.5625,0,0.46130292547774654,-0.5684666832651057,-0.40657326695796425,0.0,0.0,0,0
4.089999999999957,-3.125,0,0.5017817552866479,-0.6498098906349231,-0.45522059169335605,0.0,0.0,0,0
4.099999999999957,-3.5,0,0.5510690531719887,-0.7330881540516433,-0.5107941041650135,0.0,0.0,0,0
4.109999999999957,-3.75,0,0.5556414319031933,-0.793934063541602,-0.5674220960403311,0.0,0.0,0,0
4.119999999999957,-3.875,0,0.583384859141916,-0.8127363983097508,-0.6164849564942152,0.0,0.0,0,0
4.129999999999956,-3.875,0,0.6250309154851497,-0.7724563762384727,-0.6476792404430667,0.0,0.0,0,0
4.139999999999956,-3.6875,0,0.6250185492910898,-0.7104111676833934,-0.6602256258911321,0.0,0.0,0,0
4.149999999999956,-3.4375,0,0.6250111295746539,-0.6822829533643755,-0.6646370913857808,0.0,0.0,0,0
4.159999999999956,-2.9375,0,0.6000066777447923,-0.6470280479179118,-0.6611152826922069,0.0,0.0,0,0
4.1699999999999555,-2.4375,0,0.5850040066468754,-0.6354051950081512,-0.6559732651553958,0.0,0.0,0,0
4.179999999999955,-1.875,0,0.5510024039881252,-0.6294392041083641,-0.6506664529459895,0.0,0.0,0,0
4.189999999999955,-1.25,0,0.5306014423928751,-0.6333357376632816,-0.6472003098894479,0.0,0.0,0,0
4.199999999999955,-0.625,0,0.4933608654357251,-0.6704328852945095,-0.6518468249704602,0.0,0.0,0,0
4.209999999999955,-0.0,0,0.4460165192614351,-0.7126651029574217,-0.6640104805678526,0.0,0.0,0,0
4.2199999999999545,0.625,0,0.39260991155686104,-0.7263927637213992,-0.676486937198562,0.0,0.0,0,0
4.229999999999954,1.1875,0,0.3355659469341166,-0.7286331343251038,-0.6869161766238703,0.0,0.0,0,0
4.239999999999954,1.75,0,0.27633956816047,-0.7813163796097891,-0.705796217221054,0.0,0.0,0,0
4.249999999999954,2.1875,0,0.240803740896282,-0.841797563613701,-0.7329964864995833,0.0,0.0,0,0
4.259999999999954,2.625,0,0.2194822445377692,-0.8612279168602124,-0.7586427725717091,0.0,0.0,0,0
4.269999999999953,2.9375,0,0.20668934672266154,-0.8476586621995958,-0.7764459504972864,0.0,0.0,0,0
4.279999999999953,3.0625,0,0.1990136080335969,-0.816361325550725,-0.784429025507974,0.0,0.0,0,0
4.289999999999953,3.125,0,0.21940816482015815,-0.7868844025067306,-0.7849201009077253,0.0,0.0,0,0
4.299999999999953,3.125,0,0.23164489889209489,-0.7546953660163489,-0.7788751539294501,0.0,0.0,0,0
4.3099999999999525,3.0625,0,0.23898693933525694,-0.6978688637014069,-0.7626738958838414,0.0,0.0,0,0
4.319999999999952,2.9375,0,0.26839216360115414,-0.651345700128938,-0.7404082567328607,0.0,0.0,0,0
4.329999999999952,2.625,0,0.31103529816069253,-0.5965908337963405,-0.7116447721455567,0.0,0.0,0,0
4.339999999999952,2.375,0,0.3366211788964155,-0.4862699138419312,-0.6665698004848315,0.0,0.0,0,0
4.349999999999952,2.0,0,0.4019727073378493,-0.41074269411448694,-0.6154043792107626,0.0,0.0,0,0
4.3599999999999515,1.625,0,0.4411836244027096,-0.44230116269973024,-0.5807837359085561,0.0,0.0,0,0
4.369999999999951,1.3125,0,0.46471017464162573,-0.5134809595498064,-0.5673231806368062,0.0,0.0,0,0
4.379999999999951,0.875,0,0.5038261047849755,-0.5631262290641897,-0.5664837903222829,0.0,0.0,0,0
4.389999999999951,0.3125,0,0.5522956628709852,-0.6350676702815138,-0.5802005663141291,0.0,0.0,0,0
4.399999999999951,-0.125,0,0.6063773977225911,-0.6686904484339028,-0.5978985427380838,0.0,0.0,0,0
4.40999999999995,-0.5,0,0.6638264386335547,-0.6552294567843454,-0.6093647255473361,0.0,0.0,0,0
4.41999999999995,-0.8125,0,0.6982958631801328,-0.6956168575524799,-0.6266151519483649,0.0,0.0,0,0
4.42999999999995,-1.0625,0,0.7189775179080797,-0.7529445698431356,-0.6518810355273191,0.0,0.0,0,0
4.43999999999995,-1.25,0,0.7313865107448478,-0.8418066759074481,-0.6898661636033449,0.0,0.0,0,0
4.4499999999999496,-1.375,0,0.7388319064469087,-0.9091925670662968,-0.7337314442959352,0.0,0.0,0,0
4.459999999999949,-1.4375,0,0.7682991438681452,-0.9145609534584687,-0.7698973461284419,0.0,0.0,0,0
4.469999999999949,-1.375,0,0.7859794863208871,-0.8731970347134665,-0.7905572838454467,0.0,0.0,0,0
4.479999999999949,-1.1875,0,0.7715876917925323,-0.8105087041651059,-0.7945475679093784,0.0,0.0,0,0
4.489999999999949,-1.0,0,0.7379526150755193,-0.6948995369253902,-0.7746179617125808,0.0,0.0,0,0
4.4999999999999485,-0.75,0,0.7177715690453117,-0.5150291549057137,-0.7227002003512073,0.0,0.0,0,0
4.509999999999948,-0.375,0,0.680662941427187,-0.38529676288624215,-0.6552195128582143,0.0,0.0,0,0
4.519999999999948,-0.125,0,0.6583977648563122,-0.3241098036971628,-0.588997571026004,0.0,0.0,0,0
4.529999999999948,0.125,0,0.6200386589137873,-0.33439651906181367,-0.5380773606331659,0.0,0.0,0,0
4.539999999999948,0.375,0,0.5470231953482724,-0.3979619167528685,-0.5100542718571065,0.0,0.0,0,0
4.549999999999947,0.625,0,0.47821391720896345,-0.42948300860184746,-0.4939400192060547,0.0,0.0,0,0
4.559999999999947,0.75,0,0.41192835032537806,-0.46037987333839403,-0.4872279900325226,0.0,0.0,0,0
4.569999999999947,0.75,0,0.3471570101952268,-0.4945173345962438,-0.48868585894526684,0.0,0.0,0,0
4.579999999999947,0.8125,0,0.3082942061171361,-0.48802338098300324,-0.4885533633528141,0.0,0.0,0,0
4.589999999999947,0.6875,0,0.28497652367028165,-0.5276290065951926,-0.4963684920012898,0.0,0.0,0,0
4.599999999999946,0.5625,0,0.270985914202169,-0.6123805909793103,-0.519570911796894,0.0,0.0,0,0
4.609999999999946,0.4375,0,0.2625915485213014,-0.6963704312102482,-0.5549308156795648,0.0,0.0,0,0
4.619999999999946,0.25,0,0.25755492911278083,-0.7473687632262566,-0.5934184051889032,0.0,0.0,0,0
4.629999999999946,0.0625,0,0.2795329574676685,-0.7315577044435775,-0.6210462650398381,0.0,0.0,0,0
4.6399999999999455,-0.0625,0,0.31771977448060107,-0.7005302750477348,-0.6369430670414173,0.0,0.0,0,0
4.649999999999945,-0.1875,0,0.3656318646883606,-0.6626982436767317,-0.6420941023684802,0.0,0.0,0,0
4.659999999999945,-0.25,0,0.3693791188130164,-0.5980956270128123,-0.6332944072973467,0.0,0.0,0,0
4.669999999999945,-0.25,0,0.3466274712878098,-0.5692935949610574,-0.6204942448300887,0.0,0.0,0,0
4.679999999999945,-0.25,0,0.30797648277268586,-0.5770421885881631,-0.6118038335817035,0.0,0.0,0,0
4.689999999999944,-0.1875,0,0.2597858896636115,-0.5993859455629907,-0.609320255977961,0.0,0.0,0,0
4.699999999999944,-0.25,0,0.20587153379816692,-0.6093380666236934,-0.6093238181071075,0.0,0.0,0,0
4.709999999999944,-0.3125,0,0.19852292027890017,-0.5833788847118988,-0.6041348314280658,0.0,0.0,0,0
4.719999999999944,-0.4375,0,0.2191137521673401,-0.5320003492409762,-0.5897079349906478,0.0,0.0,0,0
4.729999999999944,-0.375,0,0.25646825130040407,-0.4456079357976345,-0.5608879351520452,0.0,0.0,0,0
4.739999999999943,-0.3125,0,0.27888095078024244,-0.3770080502734997,-0.524111958176336,0.0,0.0,0,0
4.749999999999943,-0.125,0,0.2923285704681454,-0.3411384241712272,-0.4875172513753143,0.0,0.0,0,0
4.759999999999943,-0.0,0,0.3003971422808872,-0.29560054837121164,-0.4491339107744938,0.0,0.0,0,0
4.769999999999943,0.0625,0,0.3552382853685323,-0.24989397112234218,-0.4092859228440635,0.0,0.0,0,0
4.7799999999999425,0.1875,0,0.3881429712211194,-0.19957533117038423,-0.3673438045093277,0.0,0.0,0,0
4.789999999999942,0.3125,0,0.45788578273267166,-0.12057703384212234,-0.3179904503758866,0.0,0.0,0,0
4.799999999999942,0.5625,0,0.499731469639603,-0.08307099699483128,-0.2710065596996756,0.0,0.0,0,0
4.809999999999942,0.6875,0,0.5498388817837618,-0.144299766111288,-0.24566520098199804,0.0,0.0,0,0
4.819999999999942,0.875,0,0.5549033290702571,-0.19769095259113473,-0.23607035130382537,0.0,0.0,0,0
4.8299999999999415,1.0625,0,0.5579419974421542,-0.2491897557618134,-0.238694232195423,0.0,0.0,0,0
4.839999999999941,1.25,0,0.5597651984652925,-0.3092687029304792,-0.25280912634243424,0.0,0.0,0,0
4.849999999999941,1.4375,0,0.5108591190791755,-0.3231469973903978,-0.26687670055202695,0.0,0.0,0,0
4.859999999999941,1.75,0,0.4815154714475053,-0.3329711803073684,-0.28009559650309523,0.0,0.0,0,0
4.869999999999941,2.1875,0,0.43890928286850317,-0.3257677758598037,-0.2892300323744369,0.0,0.0,0,0
4.87999999999994,2.5625,0,0.4133455697211019,-0.31695839631953837,-0.2947757051634572,0.0,0.0,0,0
4.88999999999994,2.9375,0,0.3980073418326612,-0.3247878755318168,-0.30077813923712915,0.0,0.0,0,0
4.89999999999994,3.375,0,0.3888044050995967,-0.3206841063657012,-0.3047593326628435,0.0,0.0,0,0
4.90999999999994,3.875,0,0.358282643059758,-0.320755858053721,-0.30795863774101906,0.0,0.0,0,0
4.9199999999999395,4.625,0,0.3649695858358548,-0.36310520168845456,-0.3189879505305061,0.0,0.0,0,0
4.929999999999939,5.25,0,0.3439817515015129,-0.38642761829676286,-0.33247588408375744,0.0,0.0,0,0
4.939999999999939,5.9375,0,0.2813890509009077,-0.369971652840479,-0.3399750378351018,0.0,0.0,0,0
4.949999999999939,6.625,0,0.2188334305405446,-0.35934793206637533,-0.3438496166813565,0.0,0.0,0,0
4.959999999999939,7.3125,0,0.15630005832432675,-0.33519623213622074,-0.3421189397723293,0.0,0.0,0,0
4.9699999999999385,8.0625,0,0.09378003499459604,-0.29446626014257765,-0.33258840384637894,0.0,0.0,0,0
4.979999999999938,8.5,0,0.00626802099675762,-0.2485272541361462,-0.31577617390433244,0.0,0.0,0,0
4.989999999999938,8.75,0,-0.12123918740194543,-0.1843073002371011,-0.2894823991708862,0.0,0.0,0,0
4.999999999999938,8.8125,0,-0.22274351244116727,-0.15340799885542053,-0.26226751910779306,0.0,0.0,0,0
5.009999999999938,8.5,0,-0.28364610746470037,-0.1414876937343808,-0.23811155403311063,0.0,0.0,0,0
5.019999999999937,7.9375,0,-0.32018766447882024,-0.14427219210706124,-0.21934368164790075,0.0,0.0,0,0
5.029999999999937,7.125,0,-0.2921125986872921,-0.18486197333716023,-0.21244733998575263,0.0,0.0,0,0
5.039999999999937,5.8125,0,-0.20026755921237527,-0.25643895117210536,-0.22124566222302317,0.0,0.0,0,0
5.049999999999937,4.5,0,0.029839464472574864,-0.36210432732233533,-0.24941739524288561,0.0,0.0,0,0
5.0599999999999365,3.0625,0,0.34290367868354493,-0.4423775664354467,-0.2880094294813978,0.0,0.0,0,0
5.069999999999936,1.5,0,0.655742207210127,-0.5204395133277904,-0.33449544625067634,0.0,0.0,0,0
5.079999999999936,-0.0,0,0.9184453243260762,-0.6009232540231235,-0.3877810078051658,0.0,0.0,0,0
5.089999999999936,-1.4375,0,1.1260671945956457,-0.6340951718987711,-0.43704384062388685,0.0,0.0,0,0
5.099999999999936,-3.125,0,1.2506403167573876,-0.5879222519426317,-0.4672195228876358,0.0,0.0,0,0
5.1099999999999355,-4.5625,0,1.3503841900544327,-0.5574460618075888,-0.48526483067162646,0.0,0.0,0,0
5.119999999999935,-5.9375,0,1.4602305140326597,-0.5795872649128668,-0.5041293175198746,0.0,0.0,0,0
5.129999999999935,-7.125,0,1.576138308419596,-0.6112972856711902,-0.5255629111501376,0.0,0.0,0,0
5.139999999999935,-8.125,0,1.6956829850517576,-0.6653316969747264,-0.5535166683150554,0.0,0.0,0,0
5.149999999999935,-8.0,0,1.7674097910310544,-0.730236862954503,-0.5888607072429449,0.0,0.0,0,0
5.159999999999934,-7.6875,0,1.7604458746186329,-0.7737633209867005,-0.625841229991696,0.0,0.0,0,0
5.169999999999934,-7.1875,0,1.7062675247711798,-0.8076834704987446,-0.6622096780931057,0.0,0.0,0,0
5.179999999999934,-6.5,0,1.6737605148627077,-0.8488729880484787,-0.6995423400841803,0.0,0.0,0,0
5.189999999999934,-5.625,0,1.6042563089176247,-0.8779978898650252,-0.7352334500403491,0.0,0.0,0,0
5.199999999999934,-4.75,0,1.487553785350575,-0.8691278725848545,-0.7620123345492502,0.0,0.0,0,0
5.209999999999933,-3.75,0,1.367532271210345,-0.8091264425968292,-0.771435156158766,0.0,0.0,0,0
5.219999999999933,-2.25,0,1.270519362726207,-0.7628942880211707,-0.7697269825312468,0.0,0.0,0,0
5.229999999999933,-1.0625,0,1.1623116176357242,-0.7525869544296581,-0.7662989769109291,0.0,0.0,0,0
5.239999999999933,0.1875,0,1.0473869705814345,-0.7666832588400727,-0.7663758332967578,0.0,0.0,0,0
5.2499999999999325,1.5,0,0.9534321823488607,-0.782811926044187,-0.7696630518462437,0.0,0.0,0,0
5.259999999999932,2.75,0,0.8720593094093164,-0.7976552484344848,-0.775261491163892,0.0,0.0,0,0
5.269999999999932,3.9375,0,0.7732355856455898,-0.7948167580888077,-0.7791725445488751,0.0,0.0,0,0
5.279999999999932,5.0625,0,0.6889413513873539,-0.7692166552729505,-0.7771813666936901,0.0,0.0,0,0
5.289999999999932,6.0,0,0.6383648108324124,-0.7100327467903602,-0.7637516427130242,0.0,0.0,0,0
5.299999999999931,6.875,0,0.6080188864994475,-0.6626401503931296,-0.7435293442490453,0.0,0.0,0,0
5.309999999999931,7.625,0,0.5898113318996685,-0.6130943502018439,-0.7174423454396051,0.0,0.0,0,0
5.319999999999931,8.4375,0,0.5538867991398011,-0.5428940874559324,-0.6825326938428705,0.0,0.0,0,0
5.329999999999931,9.0625,0,0.5073320794838807,-0.51318333290939,-0.6486628216561745,0.0,0.0,0,0
5.339999999999931,9.5,0,0.4793992476903284,-0.4977586513495469,-0.618481987594849,0.0,0.0,0,0
5.34999999999993,9.75,0,0.462639548614197,-0.47014311443798645,-0.5888142129634765,0.0,0.0,0,0
5.35999999999993,9.8125,0,0.4525837291685182,-0.4331339977562532,-0.5576781699220319,0.0,0.0,0,0
5.36999999999993,9.8125,0,0.4715502375011109,-0.45734187870594417,-0.5376109116788144,0.0,0.0,0,0
5.37999999999993,9.625,0,0.5079301425006666,-0.5032104225136614,-0.5307308138457838,0.0,0.0,0,0
5.3899999999999295,9.3125,0,0.5547580855004,-0.47972924653944604,-0.5205305003845163,0.0,0.0,0,0
5.399999999999929,8.8125,0,0.65785485130024,-0.46045570533026514,-0.5085155413736661,0.0,0.0,0,0
5.409999999999929,8.1875,0,0.794712910780144,-0.5067825492455604,-0.5081689429480449,0.0,0.0,0,0
5.419999999999929,7.5,0,0.9518277464680864,-0.5677662818948614,-0.5200884107374082,0.0,0.0,0,0
5.429999999999929,6.5,0,1.0960966478808518,-0.6089893629084513,-0.5378686011716168,0.0,0.0,0,0
5.4399999999999284,5.625,0,1.2326579887285112,-0.6699173273346504,-0.5642783464042235,0.0,0.0,0,0
5.449999999999928,4.625,0,1.3645947932371065,-0.755165498958801,-0.6024557769151391,0.0,0.0,0,0
5.459999999999928,3.5625,0,1.493756875942264,-0.8294555319792525,-0.6478557279279618,0.0,0.0,0,0
5.469999999999928,2.375,0,1.5962541255653584,-0.8539281601794578,-0.689070214378261,0.0,0.0,0,0
5.479999999999928,1.1875,0,1.6827524753392151,-0.8676959662538307,-0.7247953647533749,0.0,0.0,0,0
5.489999999999927,-0.3125,0,1.7846514852035291,-0.9118367565909545,-0.762203643120891,0.0,0.0,0,0
5.499999999999927,-1.5625,0,1.8707908911221174,-0.943294482676843,-0.7984218110320813,0.0,0.0,0,0
5.509999999999927,-2.75,0,1.9724745346732704,-0.9980337454168196,-0.838344197909029,0.0,0.0,0,0
5.519999999999927,-3.875,0,2.083484720803962,-1.0097548498214137,-0.872626328291506,0.0,0.0,0,0
5.5299999999999265,-4.875,0,2.200090832482377,-0.9747765522180054,-0.893056373076806,0.0,0.0,0,0
5.539999999999926,-5.6875,0,2.2700544994894263,-0.9759961485945159,-0.9096443281803479,0.0,0.0,0,0
5.549999999999926,-6.3125,0,2.3370326996936557,-0.9990243099090366,-0.9275203245260856,0.0,0.0,0,0
5.559999999999926,-6.8125,0,2.3772196198161932,-1.0455328034702065,-0.9511228203149097,0.0,0.0,0,0
5.569999999999926,-7.0,0,2.401331771889716,-1.1118760050960474,-0.9832734572711372,0.0,0.0,0,0
5.5799999999999255,-6.9375,0,2.3907990631338296,-1.1986164944742197,-1.0263420647117538,0.0,0.0,0,0
5.589999999999925,-6.625,0,2.3844794378802976,-1.2547516002532413,-1.0720239718200513,0.0,0.0,0,0
5.599999999999925,-6.0625,0,2.3556876627281786,-1.2757401784188538,-1.1127672131398119,0.0,0.0,0,0
5.609999999999925,-5.375,0,2.288412597636907,-1.2861562378034195,-1.1474450180725335,0.0,0.0,0,0
5.619999999999925,-4.5625,0,2.1980475585821444,-1.2861004402263738,-1.1751761025033014,0.0,0.0,0,0
5.629999999999924,-3.4375,0,2.1188285351492864,-1.2585631443903353,-1.1918535108807082,0.0,0.0,0,0
5.639999999999924,-2.3125,0,2.021297121089572,-1.1860792286642812,-1.1906986544374227,0.0,0.0,0,0
5.649999999999924,-1.125,0,1.9377782726537431,-1.0838893798880098,-1.16933679952754,0.0,0.0,0,0
5.659999999999924,0.125,0,1.8126669635922457,-0.9809320125309456,-1.1316558421282212,0.0,0.0,0,0
5.6699999999999235,1.5,0,1.6876001781553474,-0.8947578476373441,-1.084276243230046,0.0,0.0,0,0
5.679999999999923,2.875,0,1.5875601068932084,-0.8121975694679806,-1.0298605084776327,0.0,0.0,0,0
5.689999999999923,4.25,0,1.477536064135925,-0.7324133344016261,-0.9703710736624315,0.0,0.0,0,0
5.699999999999923,5.5,0,1.3865216384815549,-0.6630114116198705,-0.9088991412539192,0.0,0.0,0,0
5.709999999999923,6.75,0,1.2819129830889329,-0.6406891348015719,-0.8552571399634499,0.0,0.0,0,0
5.7199999999999225,8.125,0,1.1691477898533598,-0.6603092238351784,-0.8162675567377955,0.0,0.0,0,0
5.729999999999922,9.125,0,1.0764886739120159,-0.6924065312834381,-0.7914953516469241,0.0,0.0,0,0
5.739999999999922,10.0,0,0.9958932043472095,-0.694621688085762,-0.7721206189346917,0.0,0.0,0,0
5.749999999999922,10.5625,0,0.9225359226083256,-0.6795302656291157,-0.7536025482735765,0.0,0.0,0,0
5.759999999999922,10.3125,0,0.9035215535649954,-0.6613670934888206,-0.7351554573166253,0.0,0.0,0,0
5.769999999999921,10.0625,0,0.9421129321389973,-0.6484865713760775,-0.7178216801285158,0.0,0.0,0,0
5.779999999999921,9.625,0,0.9652677592833984,-0.6826357917997162,-0.7107845024627558,0.0,0.0,0,0
5.789999999999921,9.125,0,0.9791606555700391,-0.6722449975200377,-0.7030766014742122,0.0,0.0,0,0
5.799999999999921,8.5,0,1.0374963933420234,-0.6173389150247379,-0.6859290641843173,0.0,0.0,0,0
5.809999999999921,7.75,0,1.122497836005214,-0.5814159915251033,-0.6650264496524745,0.0,0.0,0,0
5.81999999999992,6.875,0,1.2234987016031285,-0.5513446901657666,-0.6422900977551329,0.0,0.0,0,0
5.82999999999992,6.0,0,1.309099220961877,-0.49096871775835055,-0.6120258217557766,0.0,0.0,0,0
5.83999999999992,4.875,0,1.4104595325771263,-0.45800943543820777,-0.5812225444922627,0.0,0.0,0,0
5.84999999999992,3.3125,0,1.5212757195462758,-0.4565962217033237,-0.556297279934475,0.0,0.0,0,0
5.8599999999999195,1.9375,0,1.6377654317277655,-0.47872189574744595,-0.540782203097069,0.0,0.0,0,0
5.869999999999919,0.5,0,1.7326592590366592,-0.5427479580702033,-0.5411753540916959,0.0,0.0,0,0
5.879999999999919,-0.875,0,1.8395955554219956,-0.6416647488762317,-0.561273233048603,0.0,0.0,0,0
5.889999999999919,-2.3125,0,1.9537573332531974,-0.73013652256048,-0.5950458909509784,0.0,0.0,0,0
5.899999999999919,-3.75,0,2.0472543999519184,-0.7582945505655769,-0.6276956228738981,0.0,0.0,0,0
5.909999999999918,-5.375,0,2.128352639971151,-0.768540595275959,-0.6558646173543102,0.0,0.0,0,0
5.919999999999918,-6.5625,0,2.202011583982691,-0.7312560222682597,-0.6709428983371001,0.0,0.0,0,0
5.929999999999918,-7.625,0,2.2462069503896145,-0.6929105116752898,-0.675336421004738,0.0,0.0,0,0
5.939999999999918,-8.0,0,2.2727241702337686,-0.6548520987729392,-0.6712395565583783,0.0,0.0,0,0
5.949999999999918,-7.875,0,2.288634502140261,-0.6283541682015008,-0.6626624788870028,0.0,0.0,0,0
5.959999999999917,-7.625,0,2.2481807012841566,-0.6277614264650434,-0.6556822684026109,0.0,0.0,0,0
5.969999999999917,-7.25,0,2.2239084207704938,-0.5990021676692849,-0.6443462482559458,0.0,0.0,0,0
5.979999999999917,-6.6875,0,2.209345052462296,-0.5992199414345432,-0.6353209868916653,0.0,0.0,0,0
5.989999999999917,-6.0625,0,2.1506070314773775,-0.60906120672349,-0.6300690308580302,0.0,0.0,0,0
5.9999999999999165,-5.3125,0,2.0403642188864266,-0.5713016862005247,-0.6183155619265291,0.0,0.0,0,0
6.009999999999916,-4.4375,0,1.949218531331856,-0.5704094439807654,-0.6087343383373763,0.0,0.0,0,0
6.019999999999916,-3.3125,0,1.8945311187991136,-0.6360149946588213,-0.6141904696016653,0.0,0.0,0,0
6.029999999999916,-2.3125,0,1.8117186712794682,-0.7324059664513022,-0.6378335689715928,0.0,0.0,0,0
6.039999999999916,-1.25,0,1.7370312027676809,-0.8058377752897741,-0.671434410235229,0.0,0.0,0,0
6.0499999999999154,-0.0,0,1.6422187216606086,-0.8320486803841156,-0.7035572642650063,0.0,0.0,0,0
